{
    "type": "FeatureCollection",
    "crs": {
        "type": "name",
        "properties": {
            "name": "urn:ogc:def:crs:OGC:1.3:CRS84"
        }
    },
    "features": [
        {
            "type": "Feature",
            "properties": {
                "name": "西門町停車場",
				"type": "bus",
                "category": "traffic",
                "city": "台北市",
                "district": "萬華區"
            },
            "geometry": {
                "type": "Point",
                "coordinates": [
                    121.3075,
                    25.0421
                ]
            }
        },
        {
            "type": "Feature",
            "properties": {
                "name": "西門町商圈",
				"type": "nightmarket",
                "category": "commercial",
                "city": "台北市",
                "district": "萬華區"
            },
            "geometry": {
                "type": "Point",
                "coordinates": [
                    121.5085,
                    25.0431
                ]
            }
        },
        {
            "type": "Feature",
            "properties": {
                "name": "信義商圈",
				"type": "nightmarket",
                "category": "commercial",
                "city": "台北市",
                "district": "信義區"
            },
            "geometry": {
                "type": "Point",
                "coordinates": [
                    121.5654,
                    25.0330
                ]
            }
        },
        {
            "type": "Feature",
            "properties": {
                "name": "信義停車場",
				"type": "parking",
                "category": "traffic",
                "city": "台北市",
                "district": "信義區"
            },
            "geometry": {
                "type": "Point",
                "coordinates": [
                    121.7664,
                    25.0340
                ]
            }
        }
    ]
}

