{
  "type": "FeatureCollection",
  "crs": {
    "type": "name",
    "properties": {
      "name": "urn:ogc:def:crs:OGC:1.3:CRS84"
    }
  },
  "features": [
    {
      "type": "Feature",
      "properties": {
        "name": "2024潮冬感謝慶",
        "id": 0,
        "date": "11月",
        "address": "松山文創園區",
        "city": "台北市",
        "district": "信義區",
        "url": "https://www.travel.taipei/zh-tw/event-calendar/details/58075",
        "hits": 3458
      },
      "geometry": {
        "type": "Point",
        "coordinates": [
          121.5606383,
          25.0438366
        ]
      }
    },
    {
      "type": "Feature",
      "properties": {
        "name": "2024繽紛耶誕玩台北",
        "id": 1,
        "date": "11月",
        "address": "臺北市15大百貨體系",
        "city": "台北市",
        "district": "信義區",
        "url": "https://www.travel.taipei/zh-tw/event-calendar/details/56243",
        "hits": 6221
      },
      "geometry": {
        "type": "Point",
        "coordinates": [
          121.565952301025,
          25.0343221030817
        ]
      }
    },
    {
      "type": "Feature",
      "properties": {
        "name": "2024臺北耶誕愛無限",
        "id": 2,
        "date": "11月",
        "address": "新生南路一段至三段、大安森林公園",
        "city": "台北市",
        "district": "大安區",
        "url": "https://www.travel.taipei/zh-tw/event-calendar/details/61957",
        "hits": 38315
      },
      "geometry": {
        "type": "Point",
        "coordinates": [
          121.5362867,
          25.0296587
        ]
      }
    },
    {
      "type": "Feature",
      "properties": {
        "name": "臺北最High新年城-2025跨年活動",
        "id": 3,
        "date": "12月",
        "address": "臺北市政府府前廣場",
        "city": "台北市",
        "district": "信義區",
        "url": "https://www.travel.taipei/zh-tw/event-calendar/details/56249",
        "hits": 7372
      },
      "geometry": {
        "type": "Point",
        "coordinates": [
          121.563331782818,
          25.0372626430477
        ]
      }
    },
    {
      "type": "Feature",
      "properties": {
        "name": "2025臺灣年味在臺北",
        "id": 4,
        "date": "1月",
        "address": "迪化街商圈等10處商圈",
        "city": "台北市",
        "district": "大同區",
        "url": "https://www.travel.taipei/zh-tw/event-calendar/details/61980",
        "hits": 1824
      },
      "geometry": {
        "type": "Point",
        "coordinates": [
          121.5100372,
          25.0551047
        ]
      }
    },
    {
      "type": "Feature",
      "properties": {
        "name": "2025三層崎彩色浪花海",
        "id": 5,
        "date": "1月",
        "address": "北投社三層崎公園",
        "city": "台北市",
        "district": "北投區",
        "url": "https://www.travel.taipei/zh-tw/event-calendar/details/63444",
        "hits": 918
      },
      "geometry": {
        "type": "Point",
        "coordinates": [
          121.4922747,
          25.1448128
        ]
      }
    },
    {
      "type": "Feature",
      "properties": {
        "name": "2025樂活夜櫻季",
        "id": 6,
        "date": "1月",
        "address": "內湖樂活公園",
        "city": "台北市",
        "district": "內湖區",
        "url": "https://www.travel.taipei/zh-tw/event-calendar/details/63445",
        "hits": 1299
      },
      "geometry": {
        "type": "Point",
        "coordinates": [
          121.6188867,
          25.0682831
        ]
      }
    },
    {
      "type": "Feature",
      "properties": {
        "name": "2025陽明山花季",
        "id": 7,
        "date": "1月",
        "address": "陽明公園、前山公園、花卉試驗中心",
        "city": "台北市",
        "district": "北投區",
        "url": "https://www.travel.taipei/zh-tw/event-calendar/details/61981",
        "hits": 2728
      },
      "geometry": {
        "type": "Point",
        "coordinates": [
          121.5401001,
          25.1592121
        ]
      }
    },
    {
      "type": "Feature",
      "properties": {
        "name": "2025台北燈節",
        "id": 8,
        "date": "2月",
        "address": "捷運西門站至北門站、中華路一段周邊",
        "city": "台北市",
        "district": "中正區",
        "url": "https://www.travel.taipei/zh-tw/event-calendar/details/61982",
        "hits": 2769
      },
      "geometry": {
        "type": "Point",
        "coordinates": [
          121.508295536041,
          25.0421957872992
        ]
      }
    },
    {
      "type": "Feature",
      "properties": {
        "name": "2025士林官邸鬱金香展",
        "id": 9,
        "date": "2月",
        "address": "士林官邸公園",
        "city": "台北市",
        "district": "士林區",
        "url": "https://www.travel.taipei/zh-tw/event-calendar/details/63446",
        "hits": 895
      },
      "geometry": {
        "type": "Point",
        "coordinates": [
          121.5291642,
          25.0913793
        ]
      }
    },
    {
      "type": "Feature",
      "properties": {
        "name": "2025台北杜鵑花季",
        "id": 10,
        "date": "3月",
        "address": "大安森林公園",
        "city": "台北市",
        "district": "大安區",
        "url": "https://www.travel.taipei/zh-tw/event-calendar/details/63447",
        "hits": 1267
      },
      "geometry": {
        "type": "Point",
        "coordinates": [
          121.5362867,
          25.0296587
        ]
      }
    },
    {
      "type": "Feature",
      "properties": {
        "name": "2025竹子湖海芋季及繡球花季",
        "id": 11,
        "date": "3月",
        "address": "竹子湖",
        "city": "台北市",
        "district": "北投區",
        "url": "https://www.travel.taipei/zh-tw/event-calendar/details/61986",
        "hits": 3201
      },
      "geometry": {
        "type": "Point",
        "coordinates": [
          121.540224552155,
          25.1671931392647
        ]
      }
    },
    {
      "type": "Feature",
      "properties": {
        "name": "2025台北花伴野餐",
        "id": 12,
        "date": "3月",
        "address": "大安森林公園",
        "city": "台北市",
        "district": "大安區",
        "url": "https://www.travel.taipei/zh-tw/event-calendar/details/61985",
        "hits": 1870
      },
      "geometry": {
        "type": "Point",
        "coordinates": [
          121.5362867,
          25.0296587
        ]
      }
    },
    {
      "type": "Feature",
      "properties": {
        "name": "2025保生文化祭",
        "id": 13,
        "date": "4月",
        "address": "大龍峒保安宮",
        "city": "台北市",
        "district": "大同區",
        "url": "https://www.travel.taipei/zh-tw/event-calendar/details/61990",
        "hits": 2213
      },
      "geometry": {
        "type": "Point",
        "coordinates": [
          121.5155703,
          25.0731088
        ]
      }
    },
    {
      "type": "Feature",
      "properties": {
        "name": "2025 Eid-al-Fitr in Taipei開齋之約 相遇臺北",
        "id": 14,
        "date": "4月",
        "address": "大安森林公園",
        "city": "台北市",
        "district": "大安區",
        "url": "https://www.travel.taipei/zh-tw/event-calendar/details/61991",
        "hits": 6525
      },
      "geometry": {
        "type": "Point",
        "coordinates": [
          121.5362867,
          25.0296587
        ]
      }
    },
    {
      "type": "Feature",
      "properties": {
        "name": "源源不絕!2025嘻哈大賞",
        "id": 15,
        "date": "4月",
        "address": "公館水岸廣場  (中正區思源街1號)",
        "city": "台北市",
        "district": "中正區",
        "url": "https://www.travel.taipei/zh-tw/event-calendar/details/61994",
        "hits": 789
      },
      "geometry": {
        "type": "Point",
        "coordinates": [
          121.5284012,
          25.0112512
        ]
      }
    },
    {
      "type": "Feature",
      "properties": {
        "name": "2025臺北傳統市場節",
        "id": 16,
        "date": "5月",
        "address": "花博公園長廊廣場及本市各公有市場",
        "city": "台北市",
        "district": "中山區",
        "url": "https://www.travel.taipei/zh-tw/event-calendar/details/61995",
        "hits": 2104
      },
      "geometry": {
        "type": "Point",
        "coordinates": [
          121.5221637,
          25.0716662
        ]
      }
    },
    {
      "type": "Feature",
      "properties": {
        "name": "2025台北羽球公開賽",
        "id": 17,
        "date": "5月",
        "address": "臺北小巨蛋",
        "city": "台北市",
        "district": "松山區",
        "url": "https://www.travel.taipei/zh-tw/event-calendar/details/65027",
        "hits": 689
      },
      "geometry": {
        "type": "Point",
        "coordinates": [
          121.5501199,
          25.0506849
        ]
      }
    },
    {
      "type": "Feature",
      "properties": {
        "name": "2025雙北世界壯年運動會",
        "id": 18,
        "date": "5月",
        "address": "南京東路四段10號",
        "city": "台北市",
        "district": "松山區",
        "url": "https://www.travel.taipei/zh-tw/event-calendar/details/61997",
        "hits": 1607
      },
      "geometry": {
        "type": "Point",
        "coordinates": [
          121.5520772,
          25.0512955
        ]
      }
    },
    {
      "type": "Feature",
      "properties": {
        "name": "2025北投夏日祭り",
        "id": 19,
        "date": "5月",
        "address": "北投公園、七星公園、七虎公園、北投捷運站、地熱谷",
        "city": "台北市",
        "district": "北投區",
        "url": "https://www.travel.taipei/zh-tw/event-calendar/details/62015",
        "hits": 1151
      },
      "geometry": {
        "type": "Point",
        "coordinates": [
          121.5029144,
          25.1364364
        ]
      }
    },
    {
      "type": "Feature",
      "properties": {
        "name": "2025台北霞海城隍文化節",
        "id": 20,
        "date": "5月",
        "address": "台北霞海城隍廟",
        "city": "台北市",
        "district": "大同區",
        "url": "https://www.travel.taipei/zh-tw/event-calendar/details/62012",
        "hits": 1370
      },
      "geometry": {
        "type": "Point",
        "coordinates": [
          121.5101441,
          25.0556493
        ]
      }
    },
    {
      "type": "Feature",
      "properties": {
        "name": "2025臺北國際龍舟錦標賽",
        "id": 21,
        "date": "5月",
        "address": "大佳河濱公園",
        "city": "台北市",
        "district": "中山區",
        "url": "https://www.travel.taipei/zh-tw/event-calendar/details/62013",
        "hits": 1685
      },
      "geometry": {
        "type": "Point",
        "coordinates": [
          121.5411006,
          25.07469
        ]
      }
    },
    {
      "type": "Feature",
      "properties": {
        "name": "2025第26屆臺北兒童藝術節",
        "id": 22,
        "date": "6月",
        "address": "臺北表演藝術中心、大安森林公園(露天音樂臺、捷運站陽光大廳)、剝皮寮歷史街區、牯嶺街小劇場、中山堂光復廳、龍山文創基地展演廳B2、中研區民活動中心2樓、西湖區民活動中心7樓、戲曲學院表藝館(木柵校區)、民生社區中心集會堂4樓、永豐金控中崙大樓會議廳3樓、大同區行政中心大禮堂6樓、士林官邸露天音樂臺、臺北大巨蛋515空間B2、北投會館綜合會議廳B1、臺北市客家音樂戲劇中心2樓等",
        "city": "台北市",
        "district": "士林區",
        "url": "https://www.travel.taipei/zh-tw/event-calendar/details/62014",
        "hits": 1568
      },
      "geometry": {
        "type": "Point",
        "coordinates": [
          121.5243691,
          25.0851242
        ]
      }
    },
    {
      "type": "Feature",
      "properties": {
        "name": "2025臺北親水節",
        "id": 23,
        "date": "6月",
        "address": "臺北自來水園區",
        "city": "台北市",
        "district": "中正區",
        "url": "https://www.travel.taipei/zh-tw/event-calendar/details/65030",
        "hits": 660
      },
      "geometry": {
        "type": "Point",
        "coordinates": [
          121.5303215,
          25.013284
        ]
      }
    },
    {
      "type": "Feature",
      "properties": {
        "name": "2025臺北夜市打牙祭",
        "id": 24,
        "date": "7月",
        "address": "本市十大夜市",
        "city": "台北市",
        "district": "松山區",
        "url": "https://www.travel.taipei/zh-tw/event-calendar/details/62019",
        "hits": 1064
      },
      "geometry": {
        "type": "Point",
        "coordinates": [
          121.577475070953,
          25.0508854148872
        ]
      }
    },
    {
      "type": "Feature",
      "properties": {
        "name": "2025天母啤酒節",
        "id": 25,
        "date": "7月",
        "address": "天母運動公園",
        "city": "台北市",
        "district": "士林區",
        "url": "https://www.travel.taipei/zh-tw/event-calendar/details/62016",
        "hits": 968
      },
      "geometry": {
        "type": "Point",
        "coordinates": [
          121.5342422,
          25.1148777
        ]
      }
    },
    {
      "type": "Feature",
      "properties": {
        "name": "光華數位新天地17週年慶活動",
        "id": 26,
        "date": "7月",
        "address": "光華數位新天地商場",
        "city": "台北市",
        "district": "中正區",
        "url": "https://www.travel.taipei/zh-tw/event-calendar/details/62018",
        "hits": 556
      },
      "geometry": {
        "type": "Point",
        "coordinates": [
          121.5319628,
          25.0451499
        ]
      }
    },
    {
      "type": "Feature",
      "properties": {
        "name": "2025年第44屆威廉瓊斯盃國際籃球邀請賽",
        "id": 27,
        "date": "7月",
        "address": "臺北和平籃球館",
        "city": "台北市",
        "district": "大安區",
        "url": "https://www.travel.taipei/zh-tw/event-calendar/details/65201",
        "hits": 39
      },
      "geometry": {
        "type": "Point",
        "coordinates": [
          121.5453433,
          25.0215212
        ]
      }
    },
    {
      "type": "Feature",
      "properties": {
        "name": "2025心中山南段開幕主題市集活動",
        "id": 28,
        "date": "7月",
        "address": "心中山",
        "city": "台北市",
        "district": "中山區",
        "url": "https://www.travel.taipei/zh-tw/event-calendar/details/62237",
        "hits": 1884
      },
      "geometry": {
        "type": "Point",
        "coordinates": [
          121.520613,
          25.0558902
        ]
      }
    },
    {
      "type": "Feature",
      "properties": {
        "name": "2025大稻埕夏日節",
        "id": 29,
        "date": "8月",
        "address": "臺北延平河濱公園3號至5號水門",
        "city": "台北市",
        "district": "大同區",
        "url": "https://www.travel.taipei/zh-tw/event-calendar/details/62021",
        "hits": 2684
      },
      "geometry": {
        "type": "Point",
        "coordinates": [
          121.507081,
          25.054116
        ]
      }
    },
    {
      "type": "Feature",
      "properties": {
        "name": "2025臺北藝穗節",
        "id": 30,
        "date": "8月",
        "address": "臺北市各展演空間",
        "city": "台北市",
        "district": "士林區",
        "url": "https://www.travel.taipei/zh-tw/event-calendar/details/62023",
        "hits": 1372
      },
      "geometry": {
        "type": "Point",
        "coordinates": [
          121.524367332459,
          25.0851324877218
        ]
      }
    },
    {
      "type": "Feature",
      "properties": {
        "name": "2025潮臺北",
        "id": 31,
        "date": "8月",
        "address": "双融域AMBI SPACE ONE、臺北市立文獻館、臺北當代藝術館、松山文創園區、台北國際藝術村、新北投車站、臺北流行音樂中心、臺北表演藝術中心、臺北小巨蛋等",
        "city": "台北市",
        "district": "南港區",
        "url": "https://www.travel.taipei/zh-tw/event-calendar/details/62031",
        "hits": 1061
      },
      "geometry": {
        "type": "Point",
        "coordinates": [
          121.5644535,
          25.0340048
        ]
      }
    },
    {
      "type": "Feature",
      "properties": {
        "name": "2025台北國際美食節-漢堡嘉年華",
        "id": 32,
        "date": "8月",
        "address": "圓山花博花海廣場",
        "city": "台北市",
        "district": "中山區",
        "url": "https://www.travel.taipei/zh-tw/event-calendar/details/65310",
        "hits": 30
      },
      "geometry": {
        "type": "Point",
        "coordinates": [
          121.520541,
          25.0703841
        ]
      }
    },
    {
      "type": "Feature",
      "properties": {
        "name": "2025第27屆臺北藝術節",
        "id": 33,
        "date": "9月",
        "address": "臺北市各展演空間",
        "city": "台北市",
        "district": "士林區",
        "url": "https://www.travel.taipei/zh-tw/event-calendar/details/62024",
        "hits": 989
      },
      "geometry": {
        "type": "Point",
        "coordinates": [
          121.524367332459,
          25.0851324877218
        ]
      }
    },
    {
      "type": "Feature",
      "properties": {
        "name": "2025台北水舞嘉年華",
        "id": 34,
        "date": "9月",
        "address": "錫口碼頭彩虹橋",
        "city": "台北市",
        "district": "松山區",
        "url": "https://www.travel.taipei/zh-tw/event-calendar/details/61989",
        "hits": 1119
      },
      "geometry": {
        "type": "Point",
        "coordinates": [
          121.5766634,
          25.0522212
        ]
      }
    },
    {
      "type": "Feature",
      "properties": {
        "name": "2025關渡國際自然藝術季",
        "id": 35,
        "date": "9月",
        "address": "關渡自然公園",
        "city": "台北市",
        "district": "北投區",
        "url": "https://www.travel.taipei/zh-tw/event-calendar/details/62032",
        "hits": 89
      },
      "geometry": {
        "type": "Point",
        "coordinates": [
          121.4708333,
          25.1188889
        ]
      }
    },
    {
      "type": "Feature",
      "properties": {
        "name": "2025臺北國際牛肉麵節",
        "id": 36,
        "date": "10月",
        "address": "花博公園長廊廣場",
        "city": "台北市",
        "district": "中山區",
        "url": "https://www.travel.taipei/zh-tw/event-calendar/details/62042",
        "hits": 1330
      },
      "geometry": {
        "type": "Point",
        "coordinates": [
          121.5221637,
          25.0716662
        ]
      }
    },
    {
      "type": "Feature",
      "properties": {
        "name": "2025第3屆心中山萬聖節",
        "id": 37,
        "date": "10月",
        "address": "心中山線形公園",
        "city": "台北市",
        "district": "中山區",
        "url": "https://www.travel.taipei/zh-tw/event-calendar/details/62238",
        "hits": 611
      },
      "geometry": {
        "type": "Point",
        "coordinates": [
          121.520613,
          25.0558902
        ]
      }
    },
    {
      "type": "Feature",
      "properties": {
        "name": "商圈嘉年華-台北生活祭",
        "id": 38,
        "date": "10月",
        "address": "花博公園長廊廣場",
        "city": "台北市",
        "district": "中山區",
        "url": "https://www.travel.taipei/zh-tw/event-calendar/details/62036",
        "hits": 457
      },
      "geometry": {
        "type": "Point",
        "coordinates": [
          121.5221637,
          25.0716662
        ]
      }
    },
    {
      "type": "Feature",
      "properties": {
        "name": "2025八德3C哈樂Day",
        "id": 39,
        "date": "10月",
        "address": "八德資訊商圈",
        "city": "台北市",
        "district": "中正區",
        "url": "https://www.travel.taipei/zh-tw/event-calendar/details/62037",
        "hits": 309
      },
      "geometry": {
        "type": "Point",
        "coordinates": [
          121.5317018,
          25.0441761
        ]
      }
    },
    {
      "type": "Feature",
      "properties": {
        "name": "永樂布業商場41週年慶活動",
        "id": 40,
        "date": "10月",
        "address": "永樂2、3樓布業商場",
        "city": "台北市",
        "district": "大同區",
        "url": "https://www.travel.taipei/zh-tw/event-calendar/details/62040",
        "hits": 372
      },
      "geometry": {
        "type": "Point",
        "coordinates": [
          121.510452032089,
          25.0548898234122
        ]
      }
    },
    {
      "type": "Feature",
      "properties": {
        "name": "2025秋OUT音樂節",
        "id": 41,
        "date": "10月",
        "address": "思源街及汀州路口、自來水園區、公館水岸廣場、古亭河濱公園",
        "city": "台北市",
        "district": "中正區",
        "url": "https://www.travel.taipei/zh-tw/event-calendar/details/62034",
        "hits": 958
      },
      "geometry": {
        "type": "Point",
        "coordinates": [
          121.5284012,
          25.0112512
        ]
      }
    },
    {
      "type": "Feature",
      "properties": {
        "name": "2025臺北爵士音樂節",
        "id": 42,
        "date": "10月",
        "address": "河岸留言西門紅樓展演館、Oldie Goodie、BLUE NOTE及Rev-Now等臺北市Live House和大安森林公園主舞台",
        "city": "台北市",
        "district": "萬華區",
        "url": "https://www.travel.taipei/zh-tw/event-calendar/details/62026",
        "hits": 1326
      },
      "geometry": {
        "type": "Point",
        "coordinates": [
          121.5061323,
          25.0421875
        ]
      }
    },
    {
      "type": "Feature",
      "properties": {
        "name": "2025臺北客家義民嘉年華",
        "id": 43,
        "date": "10月",
        "address": "暫定中正紀念堂兩廳院藝文廣場",
        "city": "台北市",
        "district": "中正區",
        "url": "https://www.travel.taipei/zh-tw/event-calendar/details/62045",
        "hits": 684
      },
      "geometry": {
        "type": "Point",
        "coordinates": [
          121.5193364,
          25.0371269
        ]
      }
    },
    {
      "type": "Feature",
      "properties": {
        "name": "2025繽紛耶誕玩台北",
        "id": 44,
        "date": "11月",
        "address": "臺北市15大百貨體系",
        "city": "台北市",
        "district": "信義區",
        "url": "https://www.travel.taipei/zh-tw/event-calendar/details/62052",
        "hits": 577
      },
      "geometry": {
        "type": "Point",
        "coordinates": [
          121.567325592041,
          25.0366162163394
        ]
      }
    },
    {
      "type": "Feature",
      "properties": {
        "name": "2025臺北溫泉季",
        "id": 45,
        "date": "11月",
        "address": "新北投捷運站周邊",
        "city": "台北市",
        "district": "北投區",
        "url": "https://www.travel.taipei/zh-tw/event-calendar/details/63448",
        "hits": 514
      },
      "geometry": {
        "type": "Point",
        "coordinates": [
          121.5022901,
          25.1369406
        ]
      }
    },
    {
      "type": "Feature",
      "properties": {
        "name": "2025士林官邸菊展",
        "id": 46,
        "date": "11月",
        "address": "士林官邸公園",
        "city": "台北市",
        "district": "士林區",
        "url": "https://www.travel.taipei/zh-tw/event-calendar/details/62050",
        "hits": 1279
      },
      "geometry": {
        "type": "Point",
        "coordinates": [
          121.5291642,
          25.0913793
        ]
      }
    },
    {
      "type": "Feature",
      "properties": {
        "name": "艋舺青山宮暗訪暨遶境",
        "id": 47,
        "date": "12月",
        "address": "艋舺青山宮",
        "city": "台北市",
        "district": "萬華區",
        "url": "https://www.travel.taipei/zh-tw/event-calendar/details/62054",
        "hits": 874
      },
      "geometry": {
        "type": "Point",
        "coordinates": [
          121.4995485,
          25.0399142
        ]
      }
    },
    {
      "type": "Feature",
      "properties": {
        "name": "2025臺北馬拉松",
        "id": 48,
        "date": "12月",
        "address": "臺北市政府市民廣場 臺北田徑場",
        "city": "台北市",
        "district": "信義區",
        "url": "https://www.travel.taipei/zh-tw/event-calendar/details/62055",
        "hits": 3140
      },
      "geometry": {
        "type": "Point",
        "coordinates": [
          121.5628798,
          25.0367502
        ]
      }
    },
    {
      "type": "Feature",
      "properties": {
        "name": "臺北最High新年城-2026跨年活動",
        "id": 49,
        "date": "12月",
        "address": "臺北市政府府前廣場",
        "city": "台北市",
        "district": "信義區",
        "url": "https://www.travel.taipei/zh-tw/event-calendar/details/62053",
        "hits": 1361
      },
      "geometry": {
        "type": "Point",
        "coordinates": [
          121.5630113,
          25.0359834
        ]
      }
    }
  ]
}