{
  "type": "FeatureCollection",
  "crs": {
    "type": "name",
    "properties": {
      "name": "urn:ogc:def:crs:OGC:1.3:CRS84"
    }
  },
  "features": [
    {
      "type": "Feature",
      "properties": {
        "name": "三芝遊客中心及名人文物館",
        "address": "新北市三芝區埔坪里埔頭坑164-2號",
        "city": "新北市",
        "district": "三芝區",
        "English": "1",
        "Japanese": "0",
        "Korean": "0",
        "BarrierFree": "1",
        "GenderFriendly": "1",
        "Vegetarian": "0",
        "FriendlyToilet": "1",
        "FairTradeFriendly": "0",
        "BicycleFriendly": "1",
        "BreastfeedingFriendly": "1",
        "MuslimFriendly": "1",
        "MenstrualFriendly": "0",
        "TotalFriendlyItems": 7
      },
      "geometry": {
        "type": "Point",
        "coordinates": [
          121.506153,
          25.258984
        ]
      }
    },
    {
      "type": "Feature",
      "properties": {
        "name": "觀音山遊客中心",
        "address": "新北市五股區凌雲路三段130號",
        "city": "新北市",
        "district": "五股區",
        "English": "1",
        "Japanese": "1",
        "Korean": "1",
        "BarrierFree": "1",
        "GenderFriendly": "1",
        "Vegetarian": "0",
        "FriendlyToilet": "1",
        "FairTradeFriendly": "0",
        "BicycleFriendly": "1",
        "BreastfeedingFriendly": "1",
        "MuslimFriendly": "1",
        "MenstrualFriendly": "1",
        "TotalFriendlyItems": 10
      },
      "geometry": {
        "type": "Point",
        "coordinates": [
          121.417856,
          25.129369
        ]
      }
    },
    {
      "type": "Feature",
      "properties": {
        "name": "新北市立十三行博物館",
        "address": "新北市八里區博物館路200號",
        "city": "新北市",
        "district": "八里區",
        "English": "1",
        "Japanese": "1",
        "Korean": "1",
        "BarrierFree": "1",
        "GenderFriendly": "1",
        "Vegetarian": "0",
        "FriendlyToilet": "1",
        "FairTradeFriendly": "0",
        "BicycleFriendly": "1",
        "BreastfeedingFriendly": "1",
        "MuslimFriendly": "0",
        "MenstrualFriendly": "1",
        "TotalFriendlyItems": 9
      },
      "geometry": {
        "type": "Point",
        "coordinates": [
          121.405007,
          25.156995
        ]
      }
    },
    {
      "type": "Feature",
      "properties": {
        "name": "新北市立淡水古蹟博物館",
        "address": "新北市淡水區中正路一段6巷32-2號(郵遞區號:251015)",
        "city": "新北市",
        "district": "淡水區",
        "English": "1",
        "Japanese": "0",
        "Korean": "0",
        "BarrierFree": "1",
        "GenderFriendly": "1",
        "Vegetarian": "0",
        "FriendlyToilet": "1",
        "FairTradeFriendly": "0",
        "BicycleFriendly": "0",
        "BreastfeedingFriendly": "0",
        "MuslimFriendly": "0",
        "MenstrualFriendly": "0",
        "TotalFriendlyItems": 4
      },
      "geometry": {
        "type": "Point",
        "coordinates": [
          121.42973,
          25.178576
        ]
      }
    },
    {
      "type": "Feature",
      "properties": {
        "name": "新北市立黃金博物館",
        "address": "新北市瑞芳區金光路8號",
        "city": "新北市",
        "district": "瑞芳區",
        "English": "1",
        "Japanese": "1",
        "Korean": "1",
        "BarrierFree": "1",
        "GenderFriendly": "1",
        "Vegetarian": "0",
        "FriendlyToilet": "1",
        "FairTradeFriendly": "0",
        "BicycleFriendly": "0",
        "BreastfeedingFriendly": "1",
        "MuslimFriendly": "0",
        "MenstrualFriendly": "0",
        "TotalFriendlyItems": 7
      },
      "geometry": {
        "type": "Point",
        "coordinates": [
          121.859407,
          25.106259
        ]
      }
    },
    {
      "type": "Feature",
      "properties": {
        "name": "白沙灣遊客中心",
        "address": "新北市石門區德茂里下員坑33-6號",
        "city": "新北市",
        "district": "石門區",
        "English": "1",
        "Japanese": "1",
        "Korean": "1",
        "BarrierFree": "1",
        "GenderFriendly": "1",
        "Vegetarian": "0",
        "FriendlyToilet": "1",
        "FairTradeFriendly": "0",
        "BicycleFriendly": "1",
        "BreastfeedingFriendly": "1",
        "MuslimFriendly": "1",
        "MenstrualFriendly": "1",
        "TotalFriendlyItems": 10
      },
      "geometry": {
        "type": "Point",
        "coordinates": [
          121.519165,
          25.272739
        ]
      }
    },
    {
      "type": "Feature",
      "properties": {
        "name": "野柳遊客中心",
        "address": "新北市萬里區野柳里港東路167-1號",
        "city": "新北市",
        "district": "萬里區",
        "English": "1",
        "Japanese": "1",
        "Korean": "1",
        "BarrierFree": "1",
        "GenderFriendly": "1",
        "Vegetarian": "1",
        "FriendlyToilet": "1",
        "FairTradeFriendly": "1",
        "BicycleFriendly": "1",
        "BreastfeedingFriendly": "1",
        "MuslimFriendly": "1",
        "MenstrualFriendly": "1",
        "TotalFriendlyItems": 12
      },
      "geometry": {
        "type": "Point",
        "coordinates": [
          121.69007,
          25.205444
        ]
      }
    },
    {
      "type": "Feature",
      "properties": {
        "name": "金山遊客中心",
        "address": "新北市金山區磺港路171-2號",
        "city": "新北市",
        "district": "金山區",
        "English": "1",
        "Japanese": "1",
        "Korean": "1",
        "BarrierFree": "1",
        "GenderFriendly": "1",
        "Vegetarian": "0",
        "FriendlyToilet": "1",
        "FairTradeFriendly": "0",
        "BicycleFriendly": "1",
        "BreastfeedingFriendly": "1",
        "MuslimFriendly": "1",
        "MenstrualFriendly": "1",
        "TotalFriendlyItems": 10
      },
      "geometry": {
        "type": "Point",
        "coordinates": [
          121.643804,
          25.224449
        ]
      }
    },
    {
      "type": "Feature",
      "properties": {
        "name": "新太源藝術工坊花紙文化館",
        "address": "新北市鶯歌區建國路485號\n新地址：239新北市鶯歌區建國路600號",
        "city": "新北市",
        "district": "鶯歌區",
        "English": "1",
        "Japanese": "1",
        "Korean": "0",
        "BarrierFree": "0",
        "GenderFriendly": "1",
        "Vegetarian": "0",
        "FriendlyToilet": "1",
        "FairTradeFriendly": "0",
        "BicycleFriendly": "1",
        "BreastfeedingFriendly": "0",
        "MuslimFriendly": "0",
        "MenstrualFriendly": "0",
        "TotalFriendlyItems": 5
      },
      "geometry": {
        "type": "Point",
        "coordinates": [
          121.340023,
          24.952679
        ]
      }
    },
    {
      "type": "Feature",
      "properties": {
        "name": "新北市立鶯歌陶瓷博物館",
        "address": "新北市鶯歌區文化路200號",
        "city": "新北市",
        "district": "鶯歌區",
        "English": "1",
        "Japanese": "0",
        "Korean": "0",
        "BarrierFree": "1",
        "GenderFriendly": "1",
        "Vegetarian": "0",
        "FriendlyToilet": "0",
        "FairTradeFriendly": "0",
        "BicycleFriendly": "0",
        "BreastfeedingFriendly": "1",
        "MuslimFriendly": "0",
        "MenstrualFriendly": "1",
        "TotalFriendlyItems": 5
      },
      "geometry": {
        "type": "Point",
        "coordinates": [
          121.352214,
          24.949328
        ]
      }
    }
  ]
}